[
{"title": "Seven Saints", "category": "Restaurants", "city": "Champaign", "rating": "4.5 ", "lat": "40.116413", "lon": "-88.241989", "addr": "32 E Chester St Champaign, Champaign-Urbana, IL 61820-4019", "hours": "N/A - N/A"},
{"title": "Biaggi's", "category": "Restaurants", "city": "Champaign", "rating": "4.0 ", "lat": "40.086609", "lon": "-88.246727", "addr": "2235 S Neil St Champaign, Champaign-Urbana, IL 61820-7505", "hours": "N/A - N/A"},
{"title": "Sakanaya", "category": "Restaurants", "city": "Champaign", "rating": "5.0 ", "lat": "40.110260", "lon": "-88.233269", "addr": "403 E Green St Champaign, Champaign-Urbana, IL 61820-5689", "hours": "N/A - N/A"},
{"title": "Black Dog Smoke & Ale House", "category": "Restaurants", "city": "Champaign", "rating": "4.5 ", "lat": "40.117882", "lon": "-88.240303", "addr": "320 N Chestnut St Champaign, Champaign-Urbana, IL 61820-3600", "hours": "N/A - N/A"},
{"title": "The Original Pancake House", "category": "Restaurants", "city": "Champaign", "rating": "4.5 ", "lat": "40.112595", "lon": "-88.278618", "addr": "1909 W Springfield Ave Champaign, Champaign-Urbana, IL 61821-3068", "hours": "N/A - N/A"},
{"title": "Urbana Garden Family Restaurant", "category": "Restaurants", "city": "Champaign", "rating": "4.0 ", "lat": "40.132832", "lon": "-88.218964", "addr": "810 W Killarney St Urbana, Champaign-Urbana, IL 61801-1017", "hours": "N/A - N/A"},
{"title": "LongHorn Steakhouse", "category": "Restaurants", "city": "Champaign", "rating": "4.0 ", "lat": "40.141251", "lon": "-88.258453", "addr": "2101 N Prospect Ave Champaign, Champaign-Urbana, IL 61822-1238", "hours": "N/A - N/A"},
{"title": "Texas Roadhouse", "category": "Restaurants", "city": "Champaign", "rating": "4.0 ", "lat": "40.117920", "lon": "-88.281082", "addr": "204 N Country Fair Dr Champaign, Champaign-Urbana, IL 61821-2945", "hours": "N/A - N/A"},
{"title": "Timpone's", "category": "Restaurants", "city": "Champaign", "rating": "4.5 ", "lat": "40.106380", "lon": "-88.223618", "addr": "710 S Goodwin Ave Urbana, Champaign-Urbana, IL 61801-3742", "hours": "N/A - N/A"},
{"title": "Silvercreek", "category": "Restaurants", "city": "Champaign", "rating": "4.5 ", "lat": "40.115421", "lon": "-88.208885", "addr": "402 N Race St Urbana, Champaign-Urbana, IL 61801-2632", "hours": "N/A - N/A"},
{"title": "Le Peep Champaign", "category": "Restaurants", "city": "Champaign", "rating": "4.0 ", "lat": "40.087872", "lon": "-88.246407", "addr": "2209 S Neil St Champaign, Champaign-Urbana, IL 61820-2001", "hours": "N/A - N/A"},
{"title": "Meat Head Burger & Fries", "category": "Restaurants", "city": "Champaign", "rating": "4.0 ", "lat": "40.101521", "lon": "-88.244492", "addr": "1305 S Neil St Champaign, Champaign-Urbana, IL 61820-6527", "hours": "N/A - N/A"},
{"title": "Billy Barooz Bar & Grill", "category": "Restaurants", "city": "Champaign", "rating": "4.5 ", "lat": "40.081322", "lon": "-88.296616", "addr": "2521 Village Green Pl Champaign, Champaign-Urbana, IL 61822-7679", "hours": "N/A - N/A"},
{"title": "Sunsinger Wine and Spirits", "category": "Restaurants", "city": "Champaign", "rating": "4.5 ", "lat": "40.083210", "lon": "-88.264458", "addr": "1115 W Windsor Rd Champaign, Champaign-Urbana, IL 61821-7804", "hours": "N/A - N/A"},
{"title": "Dos Reales Mexican Restaurant", "category": "Restaurants", "city": "Champaign", "rating": "4.0 ", "lat": "40.129959", "lon": "-88.258583", "addr": "1407 N Prospect Ave Champaign, Champaign-Urbana, IL 61820-2536", "hours": "N/A - N/A"},
{"title": "Nando", "category": "Restaurants", "city": "Champaign", "rating": "4.0 ", "lat": "40.117428", "lon": "-88.243362", "addr": "204 N Neil St Champaign, Champaign-Urbana, IL 61820-4013", "hours": "N/A - N/A"},
{"title": "Golden Harbor", "category": "Restaurants", "city": "Champaign", "rating": "4.5 ", "lat": "40.111279", "lon": "-88.243660", "addr": "505 S Neil St Champaign, Champaign-Urbana, IL 61820-5231", "hours": "N/A - N/A"},
{"title": "Bacaro Wine Bar & Italian Restaurant", "category": "Restaurants", "city": "Champaign", "rating": "4.5 ", "lat": "40.116943", "lon": "-88.242577", "addr": "113 N Walnut St Champaign, Champaign-Urbana, IL 61820-4009", "hours": "N/A - N/A"},
{"title": "Red Lobster", "category": "Restaurants", "city": "Champaign", "rating": "4.5 ", "lat": "40.138439", "lon": "-88.258636", "addr": "1901 N Prospect Ave Champaign, Champaign-Urbana, IL 61822-1201", "hours": "N/A - N/A"},
{"title": "The Courier Cafe", "category": "Restaurants", "city": "Champaign", "rating": "4.5 ", "lat": "40.113022", "lon": "-88.209091", "addr": "111 N Race St Urbana, Champaign-Urbana, IL 61801-2625", "hours": "N/A - N/A"},
{"title": "Radio Maria", "category": "Restaurants", "city": "Champaign", "rating": "4.0 ", "lat": "40.117111", "lon": "-88.242409", "addr": "119 N Walnut St Champaign, Champaign-Urbana, IL 61820-4009", "hours": "N/A - N/A"},
{"title": "Thara Thai", "category": "Restaurants", "city": "Champaign", "rating": "4.5 ", "lat": "40.133732", "lon": "-88.259995", "addr": "912 1/2 W Bloomington Rd Champaign, Champaign-Urbana, IL 61821-1725", "hours": "N/A - N/A"},
{"title": "Big Grove Tavern", "category": "Restaurants", "city": "Champaign", "rating": "4.0 ", "lat": "40.118214", "lon": "-88.243393", "addr": "1 E Main St Champaign, Champaign-Urbana, IL 61820-3654", "hours": "N/A - N/A"},
{"title": "Black Dog Smoke & Ale House", "category": "Restaurants", "city": "Champaign", "rating": "4.5 ", "lat": "40.113590", "lon": "-88.207565", "addr": "201 N Broadway Ave Urbana, Champaign-Urbana, IL 61801-2706", "hours": "N/A - N/A"},
{"title": "Maize Mexican Grill", "category": "Restaurants", "city": "Champaign", "rating": "4.5 ", "lat": "40.110371", "lon": "-88.238907", "addr": "60 E Green St Champaign, Champaign-Urbana, IL 61820-5364", "hours": "N/A - N/A"},
{"title": "Ko Fusion", "category": "Restaurants", "city": "Champaign", "rating": "4.0 ", "lat": "40.118542", "lon": "-88.243523", "addr": "1 E Main St Champaign, Champaign-Urbana, IL 61820-3654", "hours": "N/A - N/A"},
{"title": "Miga", "category": "Restaurants", "city": "Champaign", "rating": "4.5 ", "lat": "40.118347", "lon": "-88.244179", "addr": "301 N Neil St Champaign, Champaign-Urbana, IL 61820-3163", "hours": "N/A - N/A"},
{"title": "The Ribeye", "category": "Restaurants", "city": "Champaign", "rating": "4.0 ", "lat": "40.096088", "lon": "-88.245590", "addr": "1701 S Neil St Champaign, Champaign-Urbana, IL 61820-7213", "hours": "N/A - N/A"},
{"title": "Farren's Pub & Eatery", "category": "Restaurants", "city": "Champaign", "rating": "4.5 ", "lat": "40.118580", "lon": "-88.244789", "addr": "308 N Randolph St Champaign, Champaign-Urbana, IL 61820-3516", "hours": "N/A - N/A"},
{"title": "Destihl Restaurant & Brew Works", "category": "Restaurants", "city": "Champaign", "rating": "4.5 ", "lat": "40.118347", "lon": "-88.243744", "addr": "301 N Neil St Champaign, Champaign-Urbana, IL 61820-3163", "hours": "N/A - N/A"}
]